[
    {
        "name": "Bloomfield Township Public Library",
        "city": "Bloomfield Township",
        "latitude": 42.565705,
        "longitude": -83.281540,
        "sharedSystem": "n",
        "miLibraryCard": "n",
        "multi-branch": "n",
        "mel": "y",
        "melVisitingPatron": "n",
        "melAvBorrower": "y",
        "website": "https://btpl.org/"
    },
    {
        "name": "Redford Township District Library",
        "city": "Redford Township",
        "latitude": 42.414594,
        "longitude": -83.289574,
        "sharedSystem": "y",
        "miLibraryCard": "y",
        "multi-branch": "n",
        "mel": "y",
        "melVisitingPatron": "n",
        "melAvBorrower": "y",
        "website": "http://redfordlibrary.org/"
    },
    {
        "name": "Royal Oak Public Library",
        "city": "Royal Oak",
        "latitude": 42.489450,
        "longitude": -83.142567,
        "sharedSystem": "y",
        "miLibraryCard": "y",
        "multi-branch": "n",
        "mel": "y",
        "melVisitingPatron": "n",
        "melAvBorrower": "y",
        "website": "https://www.romi.gov/148/Library"
    },
    {
        "name": "William P. Faust Public Library of Westland",
        "city": "Westland",
        "latitude": 42.328594,
        "longitude": -83.400387,
        "sharedSystem": "n",
        "miLibraryCard": "y",
        "multi-branch": "n",
        "mel": "y",
        "melVisitingPatron": "n",
        "melAvBorrower": "y",
        "website": "http://www.westlandlibrary.org/"
    },
    {
        "name": "Pontiac Public Library",
        "city": "Pontiac",
        "latitude": 42.636802,
        "longitude": -83.288836,
        "sharedSystem": "y",
        "miLibraryCard": "n",
        "multi-branch": "n",
        "mel": "y",
        "melVisitingPatron": "n",
        "melAvBorrower": "y",
        "website": "http://pontiac.lib.mi.us/"
    },
    {
        "name": "Livonia Public Library - Civic Center Library",
        "city": "Livonia",
        "latitude": 42.396350,
        "longitude": -83.368157,
        "sharedSystem": "y",
        "miLibraryCard": "y",
        "multi-branch": "y",
        "mel": "y",
        "melVisitingPatron": "n",
        "melAvBorrower": "y",
        "website": "http://livoniapubliclibrary.org/"
    },
    {
        "name": "Livonia Public Library - Alfred Noble Branch",
        "city": "Livonia",
        "latitude": 42.367759,
        "longitude": -83.367728,
        "sharedSystem": "y",
        "miLibraryCard": "y",
        "multi-branch": "y",
        "mel": "y",
        "melVisitingPatron": "n",
        "melAvBorrower": "y",
        "website": "http://livoniapubliclibrary.org/"
    },
    {
        "name": "Livonia Public Library - Carl Sandburg Branch",
        "city": "Livonia",
        "latitude": 42.427340,
        "longitude": -83.343084,
        "sharedSystem": "y",
        "miLibraryCard": "y",
        "multi-branch": "y",
        "mel": "y",
        "melVisitingPatron": "n",
        "melAvBorrower": "y",
        "website": "http://livoniapubliclibrary.org/"
    },
    {
        "name": "Livonia Public Library - Vest Pocket Branch",
        "city": "Livonia",
        "latitude": 42.396193,
        "longitude": -83.372856,
        "sharedSystem": "y",
        "miLibraryCard": "y",
        "multi-branch": "y",
        "mel": "y",
        "melVisitingPatron": "n",
        "melAvBorrower": "y",
        "website": "http://livoniapubliclibrary.org/"
    }

]